{"type": "FeatureCollection", "features": [{"geometry": {"type": "Point"}, "type": "Feature", "properties": {"latlng": {"lat": 18.6504839, "lng": 73.7785786}, "Address": "Akurdi, Pimpri-Chinchwad, Maharashtra, India", "Road": [], "Time": "28/6/2017, late_night, wednesday", "RepLoc": "Pune", "Casualty": 1}}, {"geometry": {"type": "Point"}, "type": "Feature", "properties": {"latlng": {"lat": 19.2183307, "lng": 72.9780897}, "Address": "Thane, Maharashtra, India", "Road": ["ghodbunder road"], "Time": "5 pm, 30/6/2017, friday", "RepLoc": "THNAE", "Casualty": 1}}, {"geometry": {"type": "Point"}, "type": "Feature", "properties": {"latlng": {"lat": 28.6814284, "lng": 77.2226866}, "Address": "Civil Lines, New Delhi, Delhi, India", "Road": [], "Time": "29/6/2017, late_night, thursday", "RepLoc": "NEW DELHI", "Casualty": 2}}, {"geometry": {"type": "Point"}, "type": "Feature", "properties": {"latlng": {"lat": 28.6390693, "lng": 77.0867741}, "Address": "Tilak Nagar, New Delhi, Delhi 110018, India", "Road": [], "Time": "29/6/2017, evening, thursday", "RepLoc": "NEW DELHI", "Casualty": 1}}, {"geometry": {"type": "Point"}, "type": "Feature", "properties": {"latlng": {"lat": 28.422275, "lng": 77.0754359}, "Address": "Golf Course Ext Rd, Part 2, Sector 57, Gurugram, Haryana 122003, India", "Road": ["pataudi road", "the gurgaon-pataudi road"], "Time": "28/6/2017, late_night, wednesday, 11 pm", "RepLoc": "GURGAON", "Casualty": 1}}, {"geometry": {"type": "Point"}, "type": "Feature", "properties": {"latlng": {"lat": 22.2473927, "lng": 70.733651}, "Address": "Kalavad Road, Rajkot, Gujarat 360005, India", "Road": [], "Time": "1/7/2017, early_morning, saturday", "RepLoc": "Rajkot", "Casualty": 11}}, {"geometry": {"type": "Point"}, "type": "Feature", "properties": {"Time": "", "RepLoc": "", "Casualty": 1, "Road": [], "Address": []}}, {"geometry": {"type": "Point"}, "type": "Feature", "properties": {"latlng": {"lat": 26.9503285, "lng": 75.8061987}, "Address": "Shri Lal Bhadur Shastri Bhatta Basti, Shastri Nagar, Jaipur, Rajasthan 302016, India", "Road": [], "Time": "1/7/2017, early_morning, saturday", "RepLoc": "JAIPUR", "Casualty": 1}}, {"geometry": {"type": "Point"}, "type": "Feature", "properties": {"latlng": {}, "Address": "", "Road": [], "Time": "", "RepLoc": "MOSCOW", "Casualty": 1}}, {"geometry": {"type": "Point"}, "type": "Feature", "properties": {"latlng": {"lat": 18.53976, "lng": 73.8309313}, "Address": "Range Hill Corner, Jawahar Nagar, Shivajinagar, Pune, Maharashtra 411016, India", "Road": ["ganeshkhind road"], "Time": "2:20 am, 29/6/2017, thursday", "RepLoc": "PUNE", "Casualty": 1}}, {"geometry": {"type": "Point"}, "type": "Feature", "properties": {"latlng": {"lat": 30.3164945, "lng": 78.03219179999999}, "Address": "Dehradun, Uttarakhand, India", "Road": [], "Time": "", "RepLoc": "DEHRADUN", "Casualty": 40}}, {"geometry": {"type": "Point"}, "type": "Feature", "properties": {"latlng": {"lat": 16.6904996, "lng": 74.2221575}, "Address": "Mangalwar Peth, C Ward, Kolhapur, Maharashtra, India", "Road": [], "Time": "9-6", "RepLoc": "Kolhapur", "Casualty": 1}}, {"geometry": {"type": "Point"}, "type": "Feature", "properties": {"latlng": {"lat": 28.5355161, "lng": 77.3910265}, "Address": "Noida, Uttar Pradesh, India", "Road": [], "Time": "2/7/2017, early_morning, sunday, 2 am", "RepLoc": "NOIDA", "Casualty": 3}}, {"geometry": {"type": "Point"}, "type": "Feature", "properties": {"latlng": {"lat": 30.9294951, "lng": 75.4723411}, "Address": "Sidhwan Bet, Punjab 142033, India", "Road": [], "Time": "1/7/2017, evening, saturday", "RepLoc": "TNNLudhiana", "Casualty": 1}}, {"geometry": {"type": "Point"}, "type": "Feature", "properties": {"latlng": {"lat": 26.7112514, "lng": 75.89551130000001}, "Address": "Shivdaspura, Rajasthan 303903, India", "Road": [], "Time": "1/7/2017, late_night, saturday, 13-6", "RepLoc": "JAIPUR", "Casualty": 2}}, {"geometry": {"type": "Point"}, "type": "Feature", "properties": {"latlng": {"lat": 18.579305, "lng": 73.98234529999999}, "Address": "Wagholi, Pune, Maharashtra 412207, India", "Road": ["the pune-ahmednagar highway", "the pune - ahmednagar highway"], "Time": "7 pm, 2/7/2017, sunday", "RepLoc": "PUNE", "Casualty": 6}}, {"geometry": {"type": "Point"}, "type": "Feature", "properties": {"latlng": {"lat": 37.09024, "lng": -95.712891}, "Address": "United States", "Road": [], "Time": "2/7/2017, sunday", "RepLoc": "HYDERABAD", "Casualty": 1}}, {"geometry": {"type": "Point"}, "type": "Feature", "properties": {"latlng": {"lat": 8.6393155, "lng": 76.9369384}, "Address": "Vembayam, Kerala 695615, India", "Road": [], "Time": "23-6", "RepLoc": "", "Casualty": 50}}, {"geometry": {"type": "Point"}, "type": "Feature", "properties": {"Time": "", "RepLoc": "", "Casualty": 1, "Road": [], "Address": []}}, {"geometry": {"type": "Point"}, "type": "Feature", "properties": {"latlng": {"lat": 21.1458004, "lng": 79.0881546}, "Address": "Nagpur, Maharashtra, India", "Road": ["amravati road", "amravati road"], "Time": "2/7/2017, early_morning, sunday, 2:30 am", "RepLoc": "Nagpur", "Casualty": 2}}, {"geometry": {"type": "Point"}, "type": "Feature", "properties": {"latlng": {"lat": 28.3542852, "lng": 76.9398195}, "Address": "Manesar, Gurugram, Haryana 122051, India", "Road": [], "Time": "1/7/2017, late_night, saturday, 2/7/2017, sunday", "RepLoc": "GURUGRAM", "Casualty": 1}}, {"geometry": {"type": "Point"}, "type": "Feature", "properties": {"latlng": {"lat": 22.3338359, "lng": 70.7495564}, "Address": "Ghanteshwer, Rajkot, Gujarat, India", "Road": ["a road accident", "jamnagar road"], "Time": "3/7/2017, evening, monday", "RepLoc": "Rajkot", "Casualty": 1}}, {"geometry": {"type": "Point"}, "type": "Feature", "properties": {"latlng": {"lat": 13.1286632, "lng": 79.7820394}, "Address": "Thiruvalangadu, Tamil Nadu 631210, India", "Road": [], "Time": "", "RepLoc": "CHENNAI", "Casualty": 1}}, {"geometry": {"type": "Point"}, "type": "Feature", "properties": {"latlng": {"lat": 21.6595826, "lng": 81.55415789999999}, "Address": "Bijabhat, Chhattisgarh 491335, India", "Road": [], "Time": "3/7/2017, monday", "RepLoc": "RAIPUR", "Casualty": 5}}, {"geometry": {"type": "Point"}, "type": "Feature", "properties": {"latlng": {"lat": 32.7983248, "lng": 74.9151638}, "Address": "Nagrota 181221", "Road": [], "Time": "", "RepLoc": "UDHAMPUR/JAMMU", "Casualty": 32}}, {"geometry": {"type": "Point"}, "type": "Feature", "properties": {"latlng": {"lat": 27.1766701, "lng": 78.00807449999999}, "Address": "Agra, Uttar Pradesh, India", "Road": ["yamuna expressway"], "Time": "3/7/2017, early_morning, monday", "RepLoc": "AGRA", "Casualty": 4}}, {"geometry": {"type": "Point"}, "type": "Feature", "properties": {"latlng": {"lat": 19.2183307, "lng": 72.9780897}, "Address": "Thane, Maharashtra, India", "Road": [], "Time": "", "RepLoc": "THANE", "Casualty": 1}}, {"geometry": {"type": "Point"}, "type": "Feature", "properties": {"latlng": {"lat": 25.5776531, "lng": 85.0432134}, "Address": "Chhoti Khagaul, Khagaul, Bihar 801105, India", "Road": ["nh-30"], "Time": "2:20 am, 4/7/2017, tuesday", "RepLoc": "Patna", "Casualty": 5}}, {"geometry": {"type": "Point"}, "type": "Feature", "properties": {"latlng": {"lat": 22.3038945, "lng": 70.80215989999999}, "Address": "Rajkot, Gujarat, India", "Road": ["ramapir crossroads", "150-feet ring road", "150 - feet ring road"], "Time": "4/7/2017, noon, tuesday", "RepLoc": "RAJKOT", "Casualty": 1}}, {"geometry": {"type": "Point"}, "type": "Feature", "properties": {"latlng": {"lat": 21.0930779, "lng": 72.8574558}, "Address": "GIDC, Sachin, Surat, Gujarat 394230, India", "Road": ["sachin gidc crossroad"], "Time": "8 pm, 3/7/2017, monday", "RepLoc": "SURAT", "Casualty": 10}}, {"geometry": {"type": "Point"}, "type": "Feature", "properties": {"latlng": {"lat": 21.0930779, "lng": 72.8574558}, "Address": "GIDC, Sachin, Surat, Gujarat 394230, India", "Road": ["sachin gidc crossroad"], "Time": "8 pm, 3/7/2017, monday", "RepLoc": "Surat", "Casualty": 10}}, {"geometry": {"type": "Point"}, "type": "Feature", "properties": {"latlng": {"lat": 13.0826802, "lng": 80.2707184}, "Address": "Chennai, Tamil Nadu, India", "Road": ["the melmaruvathur bypass road"], "Time": "4/7/2017, early_morning, tuesday", "RepLoc": "CHENNAI", "Casualty": 4}}, {"geometry": {"type": "Point"}, "type": "Feature", "properties": {"latlng": {"lat": 32.236158, "lng": 76.326934}, "Address": "Jogiwara Road, Opp. Yongling School, Mcleodganj, District Kangra, Dharamshala, Himachal Pradesh 176219, India", "Road": ["pathankot\u2013jalandhar highway"], "Time": "4/7/2017, tuesday, 3:45 am", "RepLoc": "DHARAMSHALA", "Casualty": 1}}, {"geometry": {"type": "Point"}, "type": "Feature", "properties": {"latlng": {"lat": 28.7183693, "lng": 77.2580268}, "Address": "North East Delhi, Delhi, India", "Road": [], "Time": "1/7/2017, saturday", "RepLoc": "NEW DELHI", "Casualty": 1}}, {"geometry": {"type": "Point"}, "type": "Feature", "properties": {"latlng": {"lat": 19.2183307, "lng": 72.9780897}, "Address": "Thane, Maharashtra, India", "Road": [], "Time": "5/7/2017, wednesday", "RepLoc": "THANE", "Casualty": 2}}, {"geometry": {"type": "Point"}, "type": "Feature", "properties": {"latlng": {"lat": 28.5355161, "lng": 77.3910265}, "Address": "Noida, Uttar Pradesh, India", "Road": [], "Time": "5/7/2017, wednesday, 4/7/2017, late_night, tuesday", "RepLoc": "NOIDA", "Casualty": 1}}, {"geometry": {"type": "Point"}, "type": "Feature", "properties": {"latlng": {"lat": 28.5355161, "lng": 77.3910265}, "Address": "Noida, Uttar Pradesh, India", "Road": [], "Time": "5/7/2017, wednesday, 4/7/2017, late_night, tuesday", "RepLoc": "NOIDA", "Casualty": 1}}, {"geometry": {"type": "Point"}, "type": "Feature", "properties": {"latlng": {"lat": 30.7754217, "lng": 76.0109021}, "Address": "Gurthali, Punjab 141421, India", "Road": [], "Time": "5/7/2017, wednesday", "RepLoc": "Ludhiana", "Casualty": 1}}, {"geometry": {"type": "Point"}, "type": "Feature", "properties": {"latlng": {"lat": 26.9124336, "lng": 75.7872709}, "Address": "Jaipur, Rajasthan, India", "Road": [], "Time": "6:30 am", "RepLoc": "JAIPUR", "Casualty": 2}}, {"geometry": {"type": "Point"}, "type": "Feature", "properties": {"latlng": {"lat": 22.5072389, "lng": 86.55647570000001}, "Address": "Dhalbhumgarh, Jharkhand 832302, India", "Road": ["nh-33"], "Time": "5/7/2017, wednesday", "RepLoc": "JAMSHEDPUR", "Casualty": 5}}, {"geometry": {"type": "Point"}, "type": "Feature", "properties": {"latlng": {"lat": 19.2412737, "lng": 73.04143479999999}, "Address": "Mankoli Naka, Mankoli, Bhiwandi, Maharashtra 421302, India", "Road": ["mumbai-nashik highway"], "Time": "6/7/2017, thursday", "RepLoc": "BHIWNDI", "Casualty": 1}}, {"geometry": {"type": "Point"}, "type": "Feature", "properties": {"latlng": {"lat": 28.4594965, "lng": 77.0266383}, "Address": "Gurugram, Haryana, India", "Road": [], "Time": "", "RepLoc": "GURUGRAM", "Casualty": 1}}, {"geometry": {"type": "Point"}, "type": "Feature", "properties": {"latlng": {"lat": 13.0826802, "lng": 80.2707184}, "Address": "Chennai, Tamil Nadu, India", "Road": [], "Time": "", "RepLoc": "CHENNAI", "Casualty": 15642}}, {"geometry": {"type": "Point"}, "type": "Feature", "properties": {"latlng": {"lat": 13.0817771, "lng": 79.668103}, "Address": "Arakkonam Railway Station, No 4, RSK Complex, Good's Shed Road, PJN 1st Cross Line, Arakkonam, Tamil Nadu 631001, India", "Road": [], "Time": "5/7/2017, wednesday", "RepLoc": "CHENNAI", "Casualty": 1}}, {"geometry": {"type": "Point"}, "type": "Feature", "properties": {"latlng": {"lat": 11.015282, "lng": 76.9613669}, "Address": "No.18, Vivekananda Rd, Peranaidu Layout, Ram Nagar, Coimbatore, Tamil Nadu 641009, India", "Road": [], "Time": "6/7/2017, early_morning, thursday", "RepLoc": "COIMBATORE", "Casualty": 2}}, {"geometry": {"type": "Point"}, "type": "Feature", "properties": {"latlng": {"lat": 30.6801768, "lng": 76.7457055}, "Address": "Phase 11, Sector 65, Sahibzada Ajit Singh Nagar, Punjab, India", "Road": [], "Time": "6/7/2017, thursday", "RepLoc": "MOHALI", "Casualty": 2}}, {"geometry": {"type": "Point"}, "type": "Feature", "properties": {"latlng": {"lat": 12.1065271, "lng": 78.1361409}, "Address": "Dharmapuri, Tamil Nadu, India", "Road": [], "Time": "", "RepLoc": "Dharmapuri", "Casualty": 1}}, {"geometry": {"type": "Point"}, "type": "Feature", "properties": {"latlng": {"lat": 28.6139391, "lng": 77.2090212}, "Address": "New Delhi, Delhi, India", "Road": [], "Time": "6/7/2017, evening, thursday, 5:45 pm", "RepLoc": "NEW DELHI", "Casualty": 1}}, {"geometry": {"type": "Point"}, "type": "Feature", "properties": {"latlng": {"lat": 28.451147, "lng": 77.032685}, "Address": "364/18 Civil Lines Road, Near, Rajiv Chowk Flyover, Rajiv Chowk, Gurugram, Haryana 122001, India", "Road": ["the gurgaon-delhi expressway"], "Time": "7/7/2017, early_morning, friday", "RepLoc": "Gurgaon", "Casualty": 2}}, {"geometry": {"type": "Point"}, "type": "Feature", "properties": {"latlng": {"lat": 13.0659851, "lng": 80.2060446}, "Address": "koyambedu bus terminus, Koyambedu, Chennai, Tamil Nadu 600107, India", "Road": [], "Time": "7/7/2017, friday, 5:30 am", "RepLoc": "CHENNAI", "Casualty": 1}}, {"geometry": {"type": "Point"}, "type": "Feature", "properties": {"latlng": {"lat": 30.7333148, "lng": 76.7794179}, "Address": "Chandigarh, India", "Road": ["chhuchakwas-gwalison road"], "Time": "7/7/2017, late_night, friday", "RepLoc": "CHANDIGARH", "Casualty": 7}}, {"geometry": {"type": "Point"}, "type": "Feature", "properties": {"Time": "", "RepLoc": "", "Casualty": 1, "Road": [], "Address": []}}, {"geometry": {"type": "Point"}, "type": "Feature", "properties": {"latlng": {"lat": 28.6054875, "lng": 76.6537749}, "Address": "Jhajjar, Haryana, India", "Road": ["chhuchakwas-gwalison road"], "Time": "7/7/2017, late_night, friday", "RepLoc": "CHANDIGARH", "Casualty": 7}}, {"geometry": {"type": "Point"}, "type": "Feature", "properties": {"latlng": {"lat": 28.6922301, "lng": 76.96574629999999}, "Address": "Baba Haridas Nagar, Delhi, 110072, India", "Road": [], "Time": "7/7/2017, late_night, friday", "RepLoc": "NEW DELHI", "Casualty": 3}}, {"geometry": {"type": "Point"}, "type": "Feature", "properties": {"latlng": {"lat": 22.3038945, "lng": 70.80215989999999}, "Address": "Rajkot, Gujarat, India", "Road": ["sayla-limbdi highway"], "Time": "8/7/2017, saturday", "RepLoc": "RAJKOT", "Casualty": 3}}, {"geometry": {"type": "Point"}, "type": "Feature", "properties": {"latlng": {"lat": 22.3054741, "lng": 73.2296835}, "Address": "14 Amber Complex Ajwa Road Near Mahavir Hall, Gujarat 390019, India", "Road": ["a road accident", "ajwa road"], "Time": "8/7/2017, early_morning, saturday", "RepLoc": "VADODARA", "Casualty": 1}}, {"geometry": {"type": "Point"}, "type": "Feature", "properties": {"latlng": {"lat": 28.4629171, "lng": 77.07724549999999}, "Address": "Sector 43, Gurugram, Haryana 122022, India", "Road": [], "Time": "7/7/2017, evening, friday", "RepLoc": "GURUGRAM", "Casualty": 1}}, {"geometry": {"type": "Point"}, "type": "Feature", "properties": {"latlng": {"lat": 21.1458004, "lng": 79.0881546}, "Address": "Nagpur, Maharashtra, India", "Road": [], "Time": "", "RepLoc": "Nagpur", "Casualty": 3}}, {"geometry": {"type": "Point"}, "type": "Feature", "properties": {"latlng": {"lat": 22.4283557, "lng": 87.2151722}, "Address": "Gurguripal, Khasjangal Trailokyapur, West Bengal 721102, India", "Road": [], "Time": "7/7/2017, late_night, friday", "RepLoc": "MIDNAPORE", "Casualty": 1}}, {"geometry": {"type": "Point"}, "type": "Feature", "properties": {"latlng": {"lat": 19.2371877, "lng": 72.8441358}, "Address": "Borivali, Mumbai, Maharashtra, India", "Road": [], "Time": "6/7/2017, thursday", "RepLoc": "MUMBAI", "Casualty": 13}}, {"geometry": {"type": "Point"}, "type": "Feature", "properties": {"latlng": {"lat": 31.1413825, "lng": 76.5025742}, "Address": "Rupnagar, Punjab, India", "Road": [], "Time": "7/7/2017, noon, friday", "RepLoc": "AMBALA", "Casualty": 1}}, {"geometry": {"type": "Point"}, "type": "Feature", "properties": {"latlng": {"lat": 18.5204164, "lng": 73.9273862}, "Address": "Magarpatta Annexe - A, BG Shirke Rd, Kirtane Baugh, Magarpatta City, Hadapsar, Pune, Maharashtra 411036, India", "Road": ["the pune-solapur highway"], "Time": "8:15 am, 8/7/2017, saturday", "RepLoc": "PUNE", "Casualty": 2}}, {"geometry": {"type": "Point"}, "type": "Feature", "properties": {"latlng": {"lat": 26.927814, "lng": 75.78774100000001}, "Address": "D-257, Devi Marg, Bani Park, Jaipur, Rajasthan 302016, India", "Road": ["sadlpur-churu road", "sadlpur-churu road churu"], "Time": "8/7/2017, early_morning, saturday", "RepLoc": "JAIPUR", "Casualty": 3}}, {"geometry": {"type": "Point"}, "type": "Feature", "properties": {"latlng": {"lat": 13.0826802, "lng": 80.2707184}, "Address": "Chennai, Tamil Nadu, India", "Road": [], "Time": "", "RepLoc": "CHENNAI", "Casualty": 1}}, {"geometry": {"type": "Point"}, "type": "Feature", "properties": {"latlng": {"lat": 28.9472258, "lng": 77.7233811}, "Address": "2377/7, Hapur Rd, Zakir Colony, Meerut, Uttar Pradesh 250002, India", "Road": [], "Time": "9/7/2017, sunday, 9 am", "RepLoc": "MEERUT", "Casualty": 5}}, {"geometry": {"type": "Point"}, "type": "Feature", "properties": {"latlng": {"lat": 31.6339793, "lng": 74.8722642}, "Address": "Amritsar, Punjab, India", "Road": ["ghanupur kale bypass"], "Time": "9/7/2017, evening, sunday", "RepLoc": "AMRITSAR", "Casualty": 2}}, {"geometry": {"type": "Point"}, "type": "Feature", "properties": {"latlng": {"lat": 22.7763222, "lng": 75.84788929999999}, "Address": "Sanwer Road Industrial Area, Indore, Madhya Pradesh, India", "Road": [], "Time": "10/7/2017, evening, monday", "RepLoc": "INDORE", "Casualty": 30}}, {"geometry": {"type": "Point"}, "type": "Feature", "properties": {"latlng": {"lat": 23.1683667, "lng": 72.5781545}, "Address": "Adalaj, Gujarat 382421, India", "Road": [], "Time": "9/7/2017, late_night, sunday", "RepLoc": "AHMEDABAD", "Casualty": 1}}, {"geometry": {"type": "Point"}, "type": "Feature", "properties": {"latlng": {"lat": 15.4909301, "lng": 73.8278496}, "Address": "Panaji, Goa, India", "Road": ["the ribandar-old goa bypass"], "Time": "10/7/2017, evening, monday", "RepLoc": "Panaji", "Casualty": 1}}, {"geometry": {"type": "Point"}, "type": "Feature", "properties": {"latlng": {"lat": 21.1453067, "lng": 79.10771009999999}, "Address": "Tilak Rd, Mahal, Nagpur, Maharashtra 440032, India", "Road": [], "Time": "8/7/2017, late_night, saturday", "RepLoc": "Nagpur", "Casualty": 2}}, {"geometry": {"type": "Point"}, "type": "Feature", "properties": {"latlng": {"lat": 17.4625794, "lng": 78.430144}, "Address": "Bhartnagar, Bharat Nagar Colony, Sultan Bagh, Moosapet, Hyderabad, Telangana 500018, India", "Road": [], "Time": "9/7/2017, late_night, sunday", "RepLoc": "HYDERABAD", "Casualty": 1}}, {"geometry": {"type": "Point"}, "type": "Feature", "properties": {"latlng": {"lat": 12.6839952, "lng": 79.9833483}, "Address": "Chengalpattu, Tamil Nadu, India", "Road": [], "Time": "9/7/2017, late_night, sunday", "RepLoc": "CHENNAI", "Casualty": 2}}, {"geometry": {"type": "Point"}, "type": "Feature", "properties": {"latlng": {"lat": 28.3542852, "lng": 76.9398195}, "Address": "Manesar, Gurugram, Haryana 122051, India", "Road": ["nh-8"], "Time": "10/7/2017, noon, monday, 4 pm", "RepLoc": "GURUGRAM", "Casualty": 2}}, {"geometry": {"type": "Point"}, "type": "Feature", "properties": {"latlng": {"lat": 44.8505303, "lng": -93.341489}, "Address": "8401 Palmer Ave S, Bloomington, MN 55437, USA", "Road": [], "Time": "11/7/2017, tuesday, 1 pm", "RepLoc": "Bicholim", "Casualty": 2}}, {"geometry": {"type": "Point"}, "type": "Feature", "properties": {"latlng": {"lat": 17.4273974, "lng": 78.4422987}, "Address": "8-2-338/8, Road Number 3, Panchavati Society Colony, AK Enclave, Green Valley, Banjara Hills, Hyderabad, Telangana 500034, India", "Road": ["a road divider", "road number 3 banjara hills", "road number 3"], "Time": "11/7/2017, noon, tuesday", "RepLoc": "HYDERABAD", "Casualty": 1}}, {"geometry": {"type": "Point"}, "type": "Feature", "properties": {"latlng": {"lat": 17.5629233, "lng": 78.3751566}, "Address": "Maheshwaram, Bachupally, Hyderabad, Telangana 500043, India", "Road": ["the srisailam highway"], "Time": "11/7/2017, evening, tuesday", "RepLoc": "HYDERABAD", "Casualty": 3}}, {"geometry": {"type": "Point"}, "type": "Feature", "properties": {"latlng": {"lat": 28.455631, "lng": 76.937294}, "Address": "Garhi Harsaru, Gopalpur Khera sector 99, Gurugram, Tughlapur, Garhi Harsaru, Gurugram, Haryana 122505, India", "Road": [], "Time": "9/7/2017, late_night, sunday, 12:30 am", "RepLoc": "GURUGRAM", "Casualty": 2}}, {"geometry": {"type": "Point"}, "type": "Feature", "properties": {"latlng": {"lat": 28.4791012, "lng": 77.560509}, "Address": "Sector MU, Greater Noida, Uttar Pradesh 201310, India", "Road": [], "Time": "11/7/2017, tuesday", "RepLoc": "GREATER NOIDA", "Casualty": 1}}, {"geometry": {"type": "Point"}, "type": "Feature", "properties": {"latlng": {"lat": 10.9917275, "lng": 76.9898676}, "Address": "Sungam, Ramanathapuram, Coimbatore, Tamil Nadu 641045, India", "Road": [], "Time": "11/7/2017, tuesday", "RepLoc": "COIMBATORE", "Casualty": 1}}, {"geometry": {"type": "Point"}, "type": "Feature", "properties": {"latlng": {"lat": 9.9489717, "lng": 78.09959219999999}, "Address": "Koodal Nagar Bridge, Madurai, Tamil Nadu 625018, India", "Road": [], "Time": "", "RepLoc": "MADURAI", "Casualty": 1}}, {"geometry": {"type": "Point"}, "type": "Feature", "properties": {"latlng": {"lat": 23.1134605, "lng": 70.02601320000001}, "Address": "Anjar, Gujarat 370110, India", "Road": [], "Time": "11/7/2017, tuesday", "RepLoc": "RAJKOT", "Casualty": 6}}, {"geometry": {"type": "Point"}, "type": "Feature", "properties": {"latlng": {"lat": 28.4594965, "lng": 77.0266383}, "Address": "Gurugram, Haryana, India", "Road": [], "Time": "", "RepLoc": "GURUGRAM", "Casualty": 1}}, {"geometry": {"type": "Point"}, "type": "Feature", "properties": {"latlng": {"lat": 22.5867296, "lng": 88.41709879999999}, "Address": "Bidhannagar, West Bengal, India", "Road": [], "Time": "12/7/2017, early_morning, wednesday", "RepLoc": "Kolkata", "Casualty": 1}}, {"geometry": {"type": "Point"}, "type": "Feature", "properties": {"latlng": {"lat": 22.3038945, "lng": 70.80215989999999}, "Address": "Rajkot, Gujarat, India", "Road": [], "Time": "11/7/2017, late_night, tuesday", "RepLoc": "RAJKOT", "Casualty": 3}}, {"geometry": {"type": "Point"}, "type": "Feature", "properties": {"latlng": {"lat": 11.6541121, "lng": 78.0978487}, "Address": "Mottur, Panangadu, Salem, Tamil Nadu 636307, India", "Road": ["attur-thammampatti state highway here"], "Time": "12/7/2017, wednesday", "RepLoc": "SALEM", "Casualty": 20}}, {"geometry": {"type": "Point"}, "type": "Feature", "properties": {"latlng": {"lat": 21.1702401, "lng": 72.83106070000001}, "Address": "Surat, Gujarat, India", "Road": [], "Time": "11/7/2017, evening, tuesday, 12/7/2017, wednesday", "RepLoc": "SURAT", "Casualty": 1}}, {"geometry": {"type": "Point"}, "type": "Feature", "properties": {"latlng": {"lat": 18.5204303, "lng": 73.8567437}, "Address": "Pune, Maharashtra, India", "Road": [], "Time": "5 am, 13/7/2017, thursday", "RepLoc": "PUNE", "Casualty": 1}}, {"geometry": {"type": "Point"}, "type": "Feature", "properties": {"latlng": {"lat": 23.0045338, "lng": 72.57933899999999}, "Address": "Bhavna Colony, Chhipakuva, Ahmedabad, Gujarat 380022, India", "Road": [], "Time": "12/7/2017, early_morning, wednesday, 10/7/2017, monday", "RepLoc": "AHMEDABAD", "Casualty": 1}}, {"geometry": {"type": "Point"}, "type": "Feature", "properties": {"latlng": {"lat": 26.8466937, "lng": 80.94616599999999}, "Address": "Lucknow, Uttar Pradesh, India", "Road": [], "Time": "7:30 am", "RepLoc": "LUCKNOW", "Casualty": 1}}, {"geometry": {"type": "Point"}, "type": "Feature", "properties": {"latlng": {"lat": 21.1670594, "lng": 79.0944313}, "Address": "Railway Quarters Road, Nagpur, Maharashtra 440014, India", "Road": [], "Time": "14/7/2017, early_morning, friday", "RepLoc": "NAGPUR", "Casualty": 2}}, {"geometry": {"type": "Point"}, "type": "Feature", "properties": {"latlng": {"lat": 10.7140158, "lng": 79.0701548}, "Address": "Vallam, Tamil Nadu, India", "Road": [], "Time": "7:30 pm, 14/7/2017, friday", "RepLoc": "THANJAVUR", "Casualty": 25}}, {"geometry": {"type": "Point"}, "type": "Feature", "properties": {"latlng": {"lat": 28.4021855, "lng": 76.9836323}, "Address": "Kherki Daula, Sector 84, Gurugram, Haryana 122004, India", "Road": [], "Time": "", "RepLoc": "GURUGRAM", "Casualty": 8}}, {"geometry": {"type": "Point"}, "type": "Feature", "properties": {"latlng": {"lat": 30.7333148, "lng": 76.7794179}, "Address": "Chandigarh, India", "Road": [], "Time": "", "RepLoc": "CHANDIHGARH", "Casualty": 2}}, {"geometry": {"type": "Point"}, "type": "Feature", "properties": {"latlng": {"lat": 21.1458004, "lng": 79.0881546}, "Address": "Nagpur, Maharashtra, India", "Road": [], "Time": "13/7/2017, thursday", "RepLoc": "NAGPUR", "Casualty": 3}}, {"geometry": {"type": "Point"}, "type": "Feature", "properties": {"latlng": {"lat": 12.6177434, "lng": 79.9766195}, "Address": "Pon Vilaintha Kalathur, Tamil Nadu 603405, India", "Road": [], "Time": "15/7/2017, saturday", "RepLoc": "CHENNAI", "Casualty": 4}}, {"geometry": {"type": "Point"}, "type": "Feature", "properties": {"latlng": {"lat": 28.6139391, "lng": 77.2090212}, "Address": "New Delhi, Delhi, India", "Road": [], "Time": "5-9", "RepLoc": "NEW DELHI", "Casualty": 1}}, {"geometry": {"type": "Point"}, "type": "Feature", "properties": {"latlng": {"lat": 33.934218, "lng": 75.1136721}, "Address": "Tral 192123", "Road": [], "Time": "15/7/2017, noon, saturday", "RepLoc": "SRINAGAR", "Casualty": 3}}, {"geometry": {"type": "Point"}, "type": "Feature", "properties": {"latlng": {"lat": 28.3901763, "lng": 77.0493279}, "Address": "Sohna Rd, Badshahpur, Sector 66, Gurugram, Haryana 122001, India", "Road": [], "Time": "4:30 pm, 14/7/2017, evening, friday", "RepLoc": "GURUGRAM", "Casualty": 1}}, {"geometry": {"type": "Point"}, "type": "Feature", "properties": {"latlng": {"lat": 19.2183307, "lng": 72.9780897}, "Address": "Thane, Maharashtra, India", "Road": [], "Time": "15/7/2017, early_morning, saturday, 9 am", "RepLoc": "THANE", "Casualty": 1}}, {"geometry": {"type": "Point"}, "type": "Feature", "properties": {"latlng": {"lat": 17.2402633, "lng": 78.42938509999999}, "Address": "Rajiv Gandhi International Airport (HYD), Shamshabad, Hyderabad, Telangana 500409, India", "Road": [], "Time": "13-7, 16/7/2017, sunday", "RepLoc": "HYDERABAD", "Casualty": 2}}, {"geometry": {"type": "Point"}, "type": "Feature", "properties": {"latlng": {"lat": 18.382141, "lng": 73.847072}, "Address": "Sr. No. 430, A/P Sasewadi, (Near Katraj New Tunnel), Taluka- Bhor, Dist. Pune, Pune, Maharashtra 412205, India", "Road": ["pune-satara highway"], "Time": "6:15 pm, 14/7/2017, friday", "RepLoc": "PUNE", "Casualty": 3}}, {"geometry": {"type": "Point"}, "type": "Feature", "properties": {"latlng": {"lat": 18.5156035, "lng": 73.7819051}, "Address": "Bavdhan, Pune, Maharashtra, India", "Road": ["the pune-bangalore highway"], "Time": "10:40 pm, 13/7/2017, thursday", "RepLoc": "PUNE", "Casualty": 1}}, {"geometry": {"type": "Point"}, "type": "Feature", "properties": {"latlng": {"lat": 18.5099318, "lng": 73.87680449999999}, "Address": "Jaan Mohammed St, Pune, Maharashtra 411001, India", "Road": [], "Time": "14/7/2017, noon, friday", "RepLoc": "PUNE", "Casualty": 1}}, {"geometry": {"type": "Point"}, "type": "Feature", "properties": {"latlng": {"lat": 28.6139391, "lng": 77.2090212}, "Address": "New Delhi, Delhi, India", "Road": [], "Time": "16 am, 16/7/2017, sunday", "RepLoc": "NEW DELHI", "Casualty": 30}}, {"geometry": {"type": "Point"}, "type": "Feature", "properties": {"latlng": {"lat": 28.6139391, "lng": 77.2090212}, "Address": "New Delhi, Delhi, India", "Road": [], "Time": "", "RepLoc": "NEW DELHI", "Casualty": 26}}, {"geometry": {"type": "Point"}, "type": "Feature", "properties": {"latlng": {"lat": 22.5493912, "lng": 75.78511209999999}, "Address": "Chordiya, Madhya Pradesh 453441, India", "Road": [], "Time": "16/7/2017, early_morning, sunday", "RepLoc": "MHOW", "Casualty": 1}}, {"geometry": {"type": "Point"}, "type": "Feature", "properties": {"latlng": {"lat": 22.5493912, "lng": 75.78511209999999}, "Address": "Chordiya, Madhya Pradesh 453441, India", "Road": [], "Time": "16/7/2017, early_morning, sunday", "RepLoc": "MHOW", "Casualty": 1}}, {"geometry": {"type": "Point"}, "type": "Feature", "properties": {"latlng": {"lat": 19.0394827, "lng": 73.0918968}, "Address": "Roadpali Rd, Roadpali, Kalamboli, Panvel, Navi Mumbai, Maharashtra 410218, India", "Road": ["the mumbai corridor", "the mumbai-pune expressway"], "Time": "15/7/2017, saturday", "RepLoc": "NAVI MUMBAI", "Casualty": 1}}, {"geometry": {"type": "Point"}, "type": "Feature", "properties": {"latlng": {"lat": 13.0280197, "lng": 80.2681652}, "Address": "30, Norton Road, Mandavelipakkam, Mandaveli, Chennai, Tamil Nadu 600028, India", "Road": [], "Time": "18-8", "RepLoc": "CHENNAI", "Casualty": 1}}, {"geometry": {"type": "Point"}, "type": "Feature", "properties": {"latlng": {"lat": 21.0120728, "lng": 71.5341894}, "Address": "Pipavav, Gujarat 365555, India", "Road": [], "Time": "16/7/2017, sunday, early_morning", "RepLoc": "RAJKOT", "Casualty": 17}}, {"geometry": {"type": "Point"}, "type": "Feature", "properties": {"latlng": {"lat": 32.675958, "lng": 74.8626659}, "Address": "Digiana, Camp, Jammu, Jammu and Kashmir 180010", "Road": [], "Time": "16 am, 16/7/2017, sunday", "RepLoc": "JAMMU", "Casualty": 16}}, {"geometry": {"type": "Point"}, "type": "Feature", "properties": {"latlng": {"lat": 33.778175, "lng": 76.57617139999999}, "Address": "Jammu and Kashmir", "Road": [], "Time": "", "RepLoc": "JAMMU", "Casualty": 14}}, {"geometry": {"type": "Point"}, "type": "Feature", "properties": {"latlng": {"lat": 19.1405116, "lng": 72.8421555}, "Address": "Jogeshwari West, Mumbai, Maharashtra 400047, India", "Road": [], "Time": "3 pm, 15/7/2017, saturday", "RepLoc": "MUMBAI", "Casualty": 1}}, {"geometry": {"type": "Point"}, "type": "Feature", "properties": {"latlng": {"lat": 29.1384064, "lng": 76.69324379999999}, "Address": "Gohana, Haryana 131301, India", "Road": [], "Time": "16/7/2017, sunday", "RepLoc": "CHANDIGARH", "Casualty": 3}}, {"geometry": {"type": "Point"}, "type": "Feature", "properties": {"latlng": {"lat": 10.7904833, "lng": 78.7046725}, "Address": "Tiruchirappalli, Tamil Nadu, India", "Road": [], "Time": "16/7/2017, sunday", "RepLoc": "TRICHY", "Casualty": 1}}, {"geometry": {"type": "Point"}, "type": "Feature", "properties": {"latlng": {"lat": 10.937347, "lng": 78.4211897}, "Address": "Kulithalai, Tamil Nadu 639104, India", "Road": ["a road accident", "the kulithalai \u2013 musiri road", "the kulithalai - musiri road"], "Time": "15/7/2017, saturday", "RepLoc": "KARUR", "Casualty": 1}}, {"geometry": {"type": "Point"}, "type": "Feature", "properties": {"latlng": {"lat": 29.1384064, "lng": 76.69324379999999}, "Address": "Gohana, Haryana 131301, India", "Road": [], "Time": "16/7/2017, sunday", "RepLoc": "CHANDIGARH", "Casualty": 3}}, {"geometry": {"type": "Point"}, "type": "Feature", "properties": {"latlng": {"lat": 28.5660075, "lng": 77.1767435}, "Address": "RK Puram, New Delhi, Delhi, India", "Road": [], "Time": "", "RepLoc": "NEW DELHI", "Casualty": 4}}, {"geometry": {"type": "Point"}, "type": "Feature", "properties": {"latlng": {"lat": 26.9124336, "lng": 75.7872709}, "Address": "Jaipur, Rajasthan, India", "Road": [], "Time": "16/7/2017, sunday", "RepLoc": "JAIPUR", "Casualty": 1}}, {"geometry": {"type": "Point"}, "type": "Feature", "properties": {"latlng": {"lat": 9.3585529, "lng": 78.8374604}, "Address": "Ramanathapuram, Railway Feeder Rd, MSK Nagar, Pasumpon Nagar, Ramanathapuram, Tamil Nadu 623501, India", "Road": [], "Time": "", "RepLoc": "Madurai", "Casualty": 20}}, {"geometry": {"type": "Point"}, "type": "Feature", "properties": {"latlng": {"lat": 18.6287285, "lng": 74.03294989999999}, "Address": "Lonikand, Maharashtra, India", "Road": ["the pune-ahmednagar highway"], "Time": "25-3", "RepLoc": "PUNE", "Casualty": 4}}, {"geometry": {"type": "Point"}, "type": "Feature", "properties": {"latlng": {"lat": 19.0166223, "lng": 73.0966019}, "Address": "Kamothe, Panvel, Navi Mumbai, Maharashtra, India", "Road": ["mumbai-pune expressway", "mumbai - pune expressway"], "Time": "16/7/2017, early_morning, sunday", "RepLoc": "NAVI MUMBAI", "Casualty": 4}}, {"geometry": {"type": "Point"}, "type": "Feature", "properties": {"latlng": {"lat": 28.3982709, "lng": 77.053568}, "Address": "Badshahpur, Sector 66, Gurugram, Haryana, India", "Road": [], "Time": "15/7/2017, saturday", "RepLoc": "GURUGRAM", "Casualty": 297}}, {"geometry": {"type": "Point"}, "type": "Feature", "properties": {"latlng": {"lat": 28.5207715, "lng": 77.0814025}, "Address": "1286, Old Delhi Gurgaon Rd, Kapas Hera Extension, Kapas Hera Estate, New Delhi, Delhi 110037, India", "Road": [], "Time": "17/7/2017, monday", "RepLoc": "NEW DELHI", "Casualty": 4}}, {"geometry": {"type": "Point"}, "type": "Feature", "properties": {"latlng": {"lat": 19.2812547, "lng": 73.0482912}, "Address": "Bhiwandi, Maharashtra, India", "Road": [], "Time": "16/7/2017, evening, sunday", "RepLoc": "BHIWANDI", "Casualty": 4}}, {"geometry": {"type": "Point"}, "type": "Feature", "properties": {"latlng": {"lat": 10.7904833, "lng": 78.7046725}, "Address": "Tiruchirappalli, Tamil Nadu, India", "Road": [], "Time": "19/7/2017, early_morning, wednesday", "RepLoc": "TRICHY", "Casualty": 4}}, {"geometry": {"type": "Point"}, "type": "Feature", "properties": {"latlng": {"lat": 15.3860329, "lng": 73.84403979999999}, "Address": "Vasco da Gama, Goa, India", "Road": ["national highway 17-b"], "Time": "18/7/2017, tuesday", "RepLoc": "Vasco", "Casualty": 2}}, {"geometry": {"type": "Point"}, "type": "Feature", "properties": {"latlng": {"lat": 28.5355161, "lng": 77.3910265}, "Address": "Noida, Uttar Pradesh, India", "Road": [], "Time": "", "RepLoc": "NOIDA", "Casualty": 2}}, {"geometry": {"type": "Point"}, "type": "Feature", "properties": {"latlng": {"lat": 41.6915613, "lng": -87.6688638}, "Address": "1900 W Monterey Ave, Chicago, IL 60643, USA", "Road": ["nh-77"], "Time": "18/7/2017, tuesday, 9 am", "RepLoc": "", "Casualty": 9}}, {"geometry": {"type": "Point"}, "type": "Feature", "properties": {"latlng": {"lat": 28.5355161, "lng": 77.3910265}, "Address": "Noida, Uttar Pradesh, India", "Road": [], "Time": "", "RepLoc": "NOIDA", "Casualty": 2}}, {"geometry": {"type": "Point"}, "type": "Feature", "properties": {"latlng": {"lat": 28.6090126, "lng": 76.9854526}, "Address": "Najafgarh, New Delhi, Delhi, India", "Road": [], "Time": "17/7/2017, noon, monday", "RepLoc": "", "Casualty": 4}}, {"geometry": {"type": "Point"}, "type": "Feature", "properties": {"latlng": {"lat": 13.0540788, "lng": 80.2315129}, "Address": "Kodambakkam Flyover, Chennai, Tamil Nadu, India", "Road": [], "Time": "18/7/2017, tuesday", "RepLoc": "CHENNAI", "Casualty": 1}}, {"geometry": {"type": "Point"}, "type": "Feature", "properties": {"latlng": {"lat": 19.2183307, "lng": 72.9780897}, "Address": "Thane, Maharashtra, India", "Road": ["ghodbundar road"], "Time": "19/7/2017, early_morning, wednesday", "RepLoc": "THANE", "Casualty": 1}}, {"geometry": {"type": "Point"}, "type": "Feature", "properties": {"latlng": {"lat": 19.2119158, "lng": 73.0071474}, "Address": "\u092a\u093e\u0930\u0938\u093f\u0915 \u0928\u0917\u0930, \u0915\u0933\u0935\u093e, Thane, Maharashtra 400605, India", "Road": [], "Time": "18/7/2017, tuesday", "RepLoc": "THANE", "Casualty": 1}}, {"geometry": {"type": "Point"}, "type": "Feature", "properties": {"latlng": {"lat": 19.0330488, "lng": 73.0296625}, "Address": "Navi Mumbai, Maharashtra, India", "Road": ["palm beach road"], "Time": "", "RepLoc": "NAVI MUMBAI", "Casualty": 1}}, {"geometry": {"type": "Point"}, "type": "Feature", "properties": {"latlng": {"lat": 28.2486993, "lng": 77.06351169999999}, "Address": "Sohna, Haryana, India", "Road": [], "Time": "20/7/2017, noon, thursday, 11:30 am", "RepLoc": "GURUGRAM", "Casualty": 2}}, {"geometry": {"type": "Point"}, "type": "Feature", "properties": {"latlng": {"lat": 30.6798774, "lng": 76.844708}, "Address": "Sector 14, Panchkula, Haryana 134113, India", "Road": [], "Time": "19/7/2017, wednesday", "RepLoc": "PANCHKULA", "Casualty": 1}}, {"geometry": {"type": "Point"}, "type": "Feature", "properties": {"latlng": {"lat": 17.3759576, "lng": 78.537056}, "Address": "Chaitanyapuri, Kothapet, Hyderabad, Telangana 500060, India", "Road": [], "Time": "20/7/2017, thursday", "RepLoc": "HYDERABAD", "Casualty": 1}}, {"geometry": {"type": "Point"}, "type": "Feature", "properties": {"latlng": {"lat": 26.2683488, "lng": 73.4754729}, "Address": "Kaparda, Rajasthan 342605, India", "Road": ["jodhpur-jaipur highway"], "Time": "20/7/2017, early_morning, thursday", "RepLoc": "JODHPUR", "Casualty": 5}}, {"geometry": {"type": "Point"}, "type": "Feature", "properties": {"latlng": {"lat": 26.2683488, "lng": 73.4754729}, "Address": "Kaparda, Rajasthan 342605, India", "Road": ["jodhpur-jaipur highway"], "Time": "20/7/2017, early_morning, thursday", "RepLoc": "JODHPUR", "Casualty": 5}}, {"geometry": {"type": "Point"}, "type": "Feature", "properties": {"latlng": {"lat": 18.5631806, "lng": 73.8406198}, "Address": "Khadki Railway Station, Khadki, Pune, Maharashtra 411003, India", "Road": [], "Time": "12:30 pm, 21/7/2017, friday", "RepLoc": "Pune", "Casualty": 1}}, {"geometry": {"type": "Point"}, "type": "Feature", "properties": {"latlng": {"lat": 18.7852494, "lng": 73.30823079999999}, "Address": "Dheku, Maharashtra 410203, India", "Road": ["the mumbai-pune expressway", "the mumbai - pune expressway", "the mumbai corridor"], "Time": "21/7/2017, friday, 6 am", "RepLoc": "NAVI MUMBAI", "Casualty": 3}}, {"geometry": {"type": "Point"}, "type": "Feature", "properties": {"latlng": {"lat": 28.6462127, "lng": 77.4744994}, "Address": "Bamheta, Ghaziabad, Uttar Pradesh 201001, India", "Road": [], "Time": "21/7/2017, early_morning, friday", "RepLoc": "GHAZIABAD", "Casualty": 1}}, {"geometry": {"type": "Point"}, "type": "Feature", "properties": {"latlng": {"lat": 24.585445, "lng": 73.7124791}, "Address": "N.H. 8, Nehla Village, By Pass Road, Near Govardhan Vilas, Udaipur, Rajasthan 313001, India", "Road": ["balicha bypass", "ahmedabad-udaipur national highway 8"], "Time": "22/7/2017, early_morning, saturday", "RepLoc": "Udaipur", "Casualty": 20}}, {"geometry": {"type": "Point"}, "type": "Feature", "properties": {"latlng": {"lat": 19.2655214, "lng": 73.1733127}, "Address": "Ambivli, Maharashtra 421102, India", "Road": [], "Time": "6 pm, 22/7/2017, evening, saturday", "RepLoc": "KALYAN", "Casualty": 1}}, {"geometry": {"type": "Point"}, "type": "Feature", "properties": {"latlng": {"lat": 11.0361961, "lng": 76.9777199}, "Address": "Adi Vinayagar Complex, Sathy Rd, Third Number Bus Stand, Ganapathypudur, Coimbatore, Tamil Nadu 641006, India", "Road": [], "Time": "22/7/2017, saturday", "RepLoc": "COIMBATORE", "Casualty": 25}}, {"geometry": {"type": "Point"}, "type": "Feature", "properties": {"latlng": {"lat": 26.8687744, "lng": 80.90343879999999}, "Address": "Hardoi Rd, Chaupatiyan, Chowk, Lucknow, Uttar Pradesh 226003, India", "Road": [], "Time": "22/7/2017, saturday", "RepLoc": "LUCKNOW", "Casualty": 1}}, {"geometry": {"type": "Point"}, "type": "Feature", "properties": {"latlng": {"lat": 19.0759837, "lng": 72.8776559}, "Address": "Mumbai, Maharashtra, India", "Road": [], "Time": "", "RepLoc": "NAVI MUMBAI", "Casualty": 2}}, {"geometry": {"type": "Point"}, "type": "Feature", "properties": {"latlng": {"lat": 28.6219043, "lng": 77.3161511}, "Address": "JJ Colony, Khichripur, Mayur Vihar, New Delhi, Delhi 110091, India", "Road": [], "Time": "22/7/2017, noon, saturday", "RepLoc": "NEW DELHI", "Casualty": 1}}, {"geometry": {"type": "Point"}, "type": "Feature", "properties": {"Time": "22/7/2017, early_morning, saturday", "RepLoc": "", "Casualty": 28, "Road": [], "Address": []}}, {"geometry": {"type": "Point"}, "type": "Feature", "properties": {"latlng": {"lat": 23.022505, "lng": 72.5713621}, "Address": "Ahmedabad, Gujarat, India", "Road": [], "Time": "20/7/2017, thursday", "RepLoc": "Ahmedabad", "Casualty": 1}}, {"geometry": {"type": "Point"}, "type": "Feature", "properties": {"latlng": {"lat": 12.8931914, "lng": 80.0815848}, "Address": "Vandalur, Tamil Nadu 600048, India", "Road": [], "Time": "24/7/2017, early_morning, monday", "RepLoc": "CHENNAI", "Casualty": 12}}, {"geometry": {"type": "Point"}, "type": "Feature", "properties": {"latlng": {"lat": 19.0759837, "lng": 72.8776559}, "Address": "Mumbai, Maharashtra, India", "Road": ["santacruz link road"], "Time": "5 pm, 22/7/2017, saturday", "RepLoc": "MUMBAI", "Casualty": 1}}, {"geometry": {"type": "Point"}, "type": "Feature", "properties": {"latlng": {"lat": 32.2401494, "lng": 77.18867329999999}, "Address": "Mall Rd, Dhungri Village, Manali, Himachal Pradesh 175131, India", "Road": [], "Time": "23/7/2017, noon, sunday", "RepLoc": "MANALI", "Casualty": 1}}, {"geometry": {"type": "Point"}, "type": "Feature", "properties": {"latlng": {"lat": 30.900965, "lng": 75.8572758}, "Address": "Ludhiana, Punjab, India", "Road": ["karabara road"], "Time": "22/7/2017, evening, saturday", "RepLoc": "LUDHIANA", "Casualty": 1}}, {"geometry": {"type": "Point"}, "type": "Feature", "properties": {"latlng": {"lat": 30.900965, "lng": 75.8572758}, "Address": "Ludhiana, Punjab, India", "Road": ["karabara road area"], "Time": "24/7/2017, monday, 22/7/2017, evening, saturday", "RepLoc": "LUDHIANA", "Casualty": 1}}, {"geometry": {"type": "Point"}, "type": "Feature", "properties": {"latlng": {"lat": 28.6326016, "lng": 77.2410046}, "Address": "Bahadur Shah Zafar Marg, Delhi, India", "Road": [], "Time": "22/7/2017, late_night, saturday, 24/7/2017, monday, 10:30 pm", "RepLoc": "NEW DELHI", "Casualty": 1}}, {"geometry": {"type": "Point"}, "type": "Feature", "properties": {"latlng": {"lat": 18.4514897, "lng": 73.8780748}, "Address": "57, Katraj - Kondhwa Rd, Gokul Nagar, Kondhwa Budruk, Pune, Maharashtra 411048, India", "Road": ["katraj-kondhwa bypass"], "Time": "7:30 pm, 23/7/2017, sunday", "RepLoc": "PUNE", "Casualty": 1}}, {"geometry": {"type": "Point"}, "type": "Feature", "properties": {"latlng": {"lat": 28.6207939, "lng": 79.8128649}, "Address": "Pilibhit, Uttar Pradesh 262001, India", "Road": [], "Time": "24/7/2017, early_morning, monday", "RepLoc": "PILIBHIT", "Casualty": 1}}, {"geometry": {"type": "Point"}, "type": "Feature", "properties": {"latlng": {"lat": 28.6326016, "lng": 77.2410046}, "Address": "Bahadur Shah Zafar Marg, Delhi, India", "Road": [], "Time": "22/7/2017, saturday, 25/7/2017, tuesday", "RepLoc": "NEW DELHI", "Casualty": 1}}, {"geometry": {"type": "Point"}, "type": "Feature", "properties": {"latlng": {"lat": 11.1085242, "lng": 77.3410656}, "Address": "Tiruppur, Tamil Nadu, India", "Road": [], "Time": "", "RepLoc": "Tirupur", "Casualty": 1}}, {"geometry": {"type": "Point"}, "type": "Feature", "properties": {"latlng": {"lat": 28.645709, "lng": 77.211038}, "Address": "Plot no -6, heard & lung hospital, Aram Bagh, Paharganj, New Delhi, Delhi 110055, India", "Road": ["nh24"], "Time": "", "RepLoc": "NEW DELHI", "Casualty": 5}}, {"geometry": {"type": "Point"}, "type": "Feature", "properties": {"latlng": {"lat": 28.6405645, "lng": 77.24177259999999}, "Address": "Delhi Gate, Dariya Ganj, New Delhi, Delhi 110002, India", "Road": [], "Time": "25/7/2017, early_morning, tuesday", "RepLoc": "NEW DELHI", "Casualty": 1}}, {"geometry": {"type": "Point"}, "type": "Feature", "properties": {"latlng": {"lat": 28.6139391, "lng": 77.2090212}, "Address": "New Delhi, Delhi, India", "Road": [], "Time": "", "RepLoc": "NEW DELHI", "Casualty": 1}}, {"geometry": {"type": "Point"}, "type": "Feature", "properties": {"latlng": {"lat": 30.6942091, "lng": 76.860565}, "Address": "Panchkula, Haryana, India", "Road": [], "Time": "27/7/2017, thursday", "RepLoc": "PANCHKULA", "Casualty": 1}}, {"geometry": {"type": "Point"}, "type": "Feature", "properties": {"latlng": {"lat": 26.5679885, "lng": 85.5200433}, "Address": "Shankar Chowk - Kumar Chowk Rd, Dumra, Sitamarhi, Bihar 843314, India", "Road": ["nh-104"], "Time": "", "RepLoc": "SITAMARHI", "Casualty": 27}}, {"geometry": {"type": "Point"}, "type": "Feature", "properties": {"latlng": {"lat": 19.0330488, "lng": 73.0296625}, "Address": "Navi Mumbai, Maharashtra, India", "Road": [], "Time": "", "RepLoc": "NAVI MUMBAI", "Casualty": 1}}, {"geometry": {"type": "Point"}, "type": "Feature", "properties": {"latlng": {"lat": 15.4986628, "lng": 73.82927049999999}, "Address": "Rua Jos\u00e9 Falc\u00e3o, Altinho, Panaji, Goa 403001, India", "Road": [], "Time": "27/7/2017, 6 am, thursday", "RepLoc": "PANAJI", "Casualty": 3}}, {"geometry": {"type": "Point"}, "type": "Feature", "properties": {"latlng": {"lat": 23.0350753, "lng": 72.6227273}, "Address": "Bapunagar, Ahmedabad, Gujarat 380024, India", "Road": [], "Time": "", "RepLoc": "", "Casualty": 1}}, {"geometry": {"type": "Point"}, "type": "Feature", "properties": {"latlng": {"lat": 22.5577114, "lng": 88.4115605}, "Address": "Chingrighata Flyover, Majherpara, Tangra, Kolkata, West Bengal 700010, India", "Road": ["em bypass"], "Time": "26/7/2017, late_night, wednesday, 12:15 am", "RepLoc": "KOLKATA", "Casualty": 1}}, {"geometry": {"type": "Point"}, "type": "Feature", "properties": {"latlng": {"lat": 18.4897587, "lng": 73.8202962}, "Address": "Karve Nagar, Pune, Maharashtra 411052, India", "Road": [], "Time": "", "RepLoc": "PUNE", "Casualty": 1}}, {"geometry": {"type": "Point"}, "type": "Feature", "properties": {"latlng": {"lat": 30.8358827, "lng": 75.9735931}, "Address": "Sahnewal, Ludhiana, Punjab 141120, India", "Road": ["the ludhiana-delhi national highway"], "Time": "27/7/2017, thursday", "RepLoc": "LUDHIANA", "Casualty": 3}}, {"geometry": {"type": "Point"}, "type": "Feature", "properties": {"latlng": {"lat": 30.8358827, "lng": 75.9735931}, "Address": "Sahnewal, Ludhiana, Punjab 141120, India", "Road": ["the ludhiana-delhi national highway"], "Time": "27/7/2017, thursday", "RepLoc": "LUDHIANA", "Casualty": 3}}, {"geometry": {"type": "Point"}, "type": "Feature", "properties": {"latlng": {"lat": 11.0916356, "lng": 78.8241068}, "Address": "Padalur, Tamil Nadu 621109, India", "Road": [], "Time": "29/7/2017, early_morning, saturday", "RepLoc": "Perambalur", "Casualty": 4}}, {"geometry": {"type": "Point"}, "type": "Feature", "properties": {"latlng": {"lat": 11.3818254, "lng": 76.7019038}, "Address": "Lovedale, Ooty, Tamil Nadu, India", "Road": [], "Time": "28/7/2017, friday", "RepLoc": "Udhagamandalam", "Casualty": 5}}, {"geometry": {"type": "Point"}, "type": "Feature", "properties": {"latlng": {"lat": 11.0229389, "lng": 76.971687}, "Address": "Omni Bus Stand Coimbatore, A9,OMNI BUS STAND,0422-2529800, NH209, Doctor's Colony, Gandhipuram, Coimbatore, Tamil Nadu 641012, India", "Road": ["pollachi\u2013pallada road", "pollachi-pallada road"], "Time": "27/7/2017, late_night, thursday", "RepLoc": "COIMBATORE", "Casualty": 2}}, {"geometry": {"type": "Point"}, "type": "Feature", "properties": {"latlng": {"lat": 18.9718388, "lng": 72.8436024}, "Address": "Mazgaon, Mumbai, Maharashtra, India", "Road": [], "Time": "27/7/2017, thursday", "RepLoc": "MUMBAI", "Casualty": 1}}, {"geometry": {"type": "Point"}, "type": "Feature", "properties": {"latlng": {"lat": 31.6501196, "lng": 74.85428929999999}, "Address": "A-290-293, Court Rd, A - Block, Ranjit Avenue, Amritsar, Punjab 143001, India", "Road": [], "Time": "27/7/2017, evening, thursday", "RepLoc": "AMRITSAR", "Casualty": 1}}, {"geometry": {"type": "Point"}, "type": "Feature", "properties": {"latlng": {"lat": 22.5782512, "lng": 88.36939939999999}, "Address": "Amherst St, Kolkata, West Bengal 700009, India", "Road": [], "Time": "2:40 pm, 5:30 am, 27/7/2017, thursday", "RepLoc": "KOLKATA", "Casualty": 1}}, {"geometry": {"type": "Point"}, "type": "Feature", "properties": {"latlng": {"lat": 28.4743879, "lng": 77.50399039999999}, "Address": "Greater Noida, Uttar Pradesh, India", "Road": ["the yamuna expressway early"], "Time": "29/7/2017, early_morning, saturday", "RepLoc": "GREATER NOIDA", "Casualty": 1}}, {"geometry": {"type": "Point"}, "type": "Feature", "properties": {"latlng": {"lat": 13.1099935, "lng": 77.596227}, "Address": "Yelahanka Lake, Venkatala Village, Chowdeshwari Layout, Yelahanka, Bengaluru, Karnataka 560064, India", "Road": [], "Time": "28/7/2017, late_night, friday", "RepLoc": "BENGALURU", "Casualty": 2}}, {"geometry": {"type": "Point"}, "type": "Feature", "properties": {"latlng": {"lat": 30.6942091, "lng": 76.860565}, "Address": "Panchkula, Haryana, India", "Road": [], "Time": "28/7/2017, late_night, friday, 11:30 pm", "RepLoc": "Panchkula", "Casualty": 337}}, {"geometry": {"type": "Point"}, "type": "Feature", "properties": {"latlng": {"lat": 26.8466937, "lng": 80.94616599999999}, "Address": "Lucknow, Uttar Pradesh, India", "Road": [], "Time": "29/7/2017, saturday", "RepLoc": "LUCKNOW", "Casualty": 1}}, {"geometry": {"type": "Point"}, "type": "Feature", "properties": {"latlng": {"lat": 9.796207899999999, "lng": 76.69035699999999}, "Address": "Pizhaku, Kerala, India", "Road": ["pala-thodupuzha road"], "Time": "10 am, 29/7/2017, saturday", "RepLoc": "KOTTAYAM", "Casualty": 1}}, {"geometry": {"type": "Point"}, "type": "Feature", "properties": {"latlng": {"lat": 21.3855542, "lng": 78.9217522}, "Address": "Savner, Maharashtra 441107, India", "Road": [], "Time": "29/7/2017, 9 pm, saturday, 8:30 pm", "RepLoc": "NAGPUR", "Casualty": 4}}, {"geometry": {"type": "Point"}, "type": "Feature", "properties": {"latlng": {"lat": 13.0175283, "lng": 77.71076649999999}, "Address": "Bhattarahalli, Hosabasavanapura, Krishnarajapura, Bengaluru, Karnataka 560049, India", "Road": [], "Time": "1:15 am, 30/7/2017, sunday", "RepLoc": "BENGALURU", "Casualty": 1}}, {"geometry": {"type": "Point"}, "type": "Feature", "properties": {"latlng": {"lat": 13.0175283, "lng": 77.71076649999999}, "Address": "Bhattarahalli, Hosabasavanapura, Krishnarajapura, Bengaluru, Karnataka 560049, India", "Road": [], "Time": "1:15 am, 30/7/2017, sunday", "RepLoc": "BENGALURU", "Casualty": 1}}, {"geometry": {"type": "Point"}, "type": "Feature", "properties": {"latlng": {"lat": 22.5057437, "lng": 88.3567163}, "Address": "Lake Gardens, Kolkata, West Bengal, India", "Road": ["prince anwar shah road"], "Time": "29/7/2017, late_night, saturday, 10:30 pm", "RepLoc": "KOLKATA", "Casualty": 1}}, {"geometry": {"type": "Point"}, "type": "Feature", "properties": {"latlng": {"lat": 18.4662167, "lng": 73.816934}, "Address": "Wadgaon Bridge, Narveer Tanaji Malusare Rd, Wadgaon Budruk, Anand Nagar, Pune, Maharashtra 411051, India", "Road": ["the katraj\u2013dehu road bypass"], "Time": "30/7/2017, evening, sunday", "RepLoc": "Pune", "Casualty": 1}}, {"geometry": {"type": "Point"}, "type": "Feature", "properties": {"latlng": {}, "Address": "", "Road": [], "Time": "29/7/2017, early_morning, saturday", "RepLoc": "MUNGER", "Casualty": 45}}, {"geometry": {"type": "Point"}, "type": "Feature", "properties": {"latlng": {"lat": 11.1085242, "lng": 77.3410656}, "Address": "Tiruppur, Tamil Nadu, India", "Road": [], "Time": "29/7/2017, saturday", "RepLoc": "TIRUPUR", "Casualty": 2}}, {"geometry": {"type": "Point"}, "type": "Feature", "properties": {"latlng": {"lat": 28.705344, "lng": 77.131956}, "Address": "Madhuban Chowk, Outer Ring Rd, Block D, Sector 14, Rohini, New Delhi, Delhi 110085, India", "Road": [], "Time": "11 pm", "RepLoc": "NEW DELHI", "Casualty": 6}}, {"geometry": {"type": "Point"}, "type": "Feature", "properties": {"latlng": {"lat": 19.1022046, "lng": 72.845731}, "Address": "Parleshwar Rd, Agarwal Market, Vile Parle East, Vile Parle, Mumbai, Maharashtra 400047, India", "Road": [], "Time": "5 am, 30/7/2017, sunday", "RepLoc": "MUMBAI", "Casualty": 1}}, {"geometry": {"type": "Point"}, "type": "Feature", "properties": {"latlng": {"lat": 28.3651887, "lng": 76.9654106}, "Address": "Naurangpur Rd, Gurugram, Haryana, India", "Road": [], "Time": "28/7/2017, friday", "RepLoc": "GURUGRAM", "Casualty": 1}}, {"geometry": {"type": "Point"}, "type": "Feature", "properties": {"latlng": {"lat": 22.3071588, "lng": 73.1812187}, "Address": "Vadodara, Gujarat, India", "Road": [], "Time": "", "RepLoc": "VADODARA", "Casualty": 1}}, {"geometry": {"type": "Point"}, "type": "Feature", "properties": {"latlng": {"lat": 17.2402633, "lng": 78.42938509999999}, "Address": "Rajiv Gandhi International Airport (HYD), Shamshabad, Hyderabad, Telangana 500409, India", "Road": [], "Time": "2 pm, 30/7/2017, noon, sunday", "RepLoc": "HYDERABAD", "Casualty": 8}}, {"geometry": {"type": "Point"}, "type": "Feature", "properties": {"latlng": {"lat": 26.8622557, "lng": 75.9557586}, "Address": "Kanota, Rajasthan 303012, India", "Road": [], "Time": "8 am, 30/7/2017, sunday", "RepLoc": "JAIPUR", "Casualty": 1}}, {"geometry": {"type": "Point"}, "type": "Feature", "properties": {"latlng": {"lat": 22.5075555, "lng": 88.3528044}, "Address": "Lake Gardens Flyover, Kolkata, West Bengal, India", "Road": [], "Time": "10:30 pm, 29/7/2017, saturday", "RepLoc": "KOLKATA", "Casualty": 1}}, {"geometry": {"type": "Point"}, "type": "Feature", "properties": {"latlng": {"lat": 28.3651887, "lng": 76.9654106}, "Address": "Naurangpur Rd, Gurugram, Haryana, India", "Road": [], "Time": "28/7/2017, friday", "RepLoc": "GURUGRAM", "Casualty": 2}}]}